{
"אבו גוש": {"formatted_address": "Abu Ghosh, Israel", "latitude": "31.806293", "longitude": "35.109193", "types": "locality, political"},
"אבו סנאן": {"formatted_address": "Abu Snan, Israel", "latitude": "32.95803", "longitude": "35.171969", "types": "locality, political"},
"אבירים": {"formatted_address": "Abirim, Israel", "latitude": "33.038086", "longitude": "35.286044", "types": "locality, political"},
"אבן יהודה": {"formatted_address": "Even Yehuda, Israel", "latitude": "32.276648", "longitude": "34.885087", "types": "locality, political"},
"אום אל-פחם": {"formatted_address": "Umm al-Fahm, Israel", "latitude": "32.517127", "longitude": "35.148529", "types": "locality, political"},
"אום-אל-פחם": {"formatted_address": "Umm al-Fahm, Israel", "latitude": "32.517127", "longitude": "35.148529", "types": "locality, political"},
"אופקים": {"formatted_address": "Ofakim, Israel", "latitude": "31.311337", "longitude": "34.622824", "types": "locality, political"},
"אור יהודה": {"formatted_address": "Or Yehuda, Israel", "latitude": "32.029748", "longitude": "34.856173", "types": "locality, political"},
"אור עקיבא": {"formatted_address": "Or Akiva, Israel", "latitude": "32.509965", "longitude": "34.920394", "types": "locality, political"},
"אורנית": {"formatted_address": "Oranit", "latitude": "32.131924", "longitude": "34.99081", "types": "locality, political"},
"אזור": {"formatted_address": "Azor, Israel", "latitude": "32.029558", "longitude": "34.799648", "types": "locality, political"},
"איכסאל": {"formatted_address": "Iksal, Israel", "latitude": "32.682085", "longitude": "35.320743", "types": "locality, political"},
"אילון": {"formatted_address": "Eilon, Israel", "latitude": "33.062526", "longitude": "35.219162", "types": "locality, political"},
"אילת": {"formatted_address": "Eilat, Israel", "latitude": "29.557669", "longitude": "34.951925", "types": "locality, political"},
"איעבלין": {"formatted_address": "I'billin, Israel", "latitude": "32.821799", "longitude": "35.19012", "types": "locality, political"},
"אכסאל": {"formatted_address": "Iksal, Israel", "latitude": "32.682085", "longitude": "35.320743", "types": "locality, political"},
"אל-טירה": {"formatted_address": "Tira, Israel", "latitude": "32.235466", "longitude": "34.950506", "types": "locality, political"},
"אל-פחם": {"formatted_address": "Umm al-Fahm, Israel", "latitude": "32.517127", "longitude": "35.148529", "types": "locality, political"},
"אלון מורה": {"formatted_address": "Elon Moreh", "latitude": "32.234418", "longitude": "35.331201", "types": "locality, political"},
"אלון שבות": {"formatted_address": "Alon Shvut", "latitude": "31.654871", "longitude": "35.125256", "types": "locality, political"},
"אליכין": {"formatted_address": "Elyakhin, Israel", "latitude": "32.407659", "longitude": "34.925028", "types": "locality, political"},
"אלעד": {"formatted_address": "El'ad, Israel", "latitude": "32.04953", "longitude": "34.95075", "types": "locality, political"},
"אלפי מנשה": {"formatted_address": "Alfei Menashe", "latitude": "32.170631", "longitude": "35.014858", "types": "locality, political"},
"אלקנה": {"formatted_address": "Elkana", "latitude": "32.110566", "longitude": "35.032054", "types": "locality, political"},
"אעבלין": {"formatted_address": "I'billin, Israel", "latitude": "32.821799", "longitude": "35.19012", "types": "locality, political"},
"אפרת": {"formatted_address": "Efrat", "latitude": "31.653589", "longitude": "35.149934", "types": "locality, political"},
"אפרתה": {"formatted_address": "Ibn Gabirol St 175, Tel Aviv-Yafo, Israel", "latitude": "32.0930503", "longitude": "34.7831204", "types": "clothing_store, establishment, point_of_interest, store"},
"אריאל": {"formatted_address": "Ari'el", "latitude": "32.104637", "longitude": "35.174514", "types": "locality, political"},
"אשדוד": {"formatted_address": "Ashdod, Israel", "latitude": "31.804381", "longitude": "34.655314", "types": "locality, political"},
"אשכול": {"formatted_address": "Eshkol Regional Council, Israel", "latitude": "31.2068084", "longitude": "34.4641848", "types": "administrative_area_level_4, political"},
"אשקלון": {"formatted_address": "Ashkelon, Israel", "latitude": "31.6687885", "longitude": "34.5742523", "types": "locality, political"},
"אשרת": {"formatted_address": "Oshrat, Israel", "latitude": "32.971645", "longitude": "35.1557", "types": "locality, political"},
"באקה אל-גרביה": {"formatted_address": "Baqa al-Gharbiyye, Israel", "latitude": "32.422891", "longitude": "35.035764", "types": "locality, political"},
"באר יעקב": {"formatted_address": "Be'er Ya'akov, Israel", "latitude": "31.943507", "longitude": "34.83904", "types": "locality, political"},
"באר שבע": {"formatted_address": "Be'er Sheva, Israel", "latitude": "31.252973", "longitude": "34.791462", "types": "locality, political"},
"בארות יצחק": {"formatted_address": "Be'erot Yitzhak, Israel", "latitude": "32.042025", "longitude": "34.910221", "types": "locality, political"},
"בועיינה-נוגיידאת": {"formatted_address": "Bu'eine Nujeidat, Israel", "latitude": "32.807711", "longitude": "35.36527", "types": "locality, political"},
"בוקעאתא": {"formatted_address": "Buq'ata", "latitude": "33.2026572", "longitude": "35.7767723", "types": "locality, political"},
"ביענה": {"formatted_address": "Bi'ina, Israel", "latitude": "32.929538", "longitude": "35.271917", "types": "locality, political"},
"ביר אל-מכסור": {"formatted_address": "Bir al-Maksur, Israel", "latitude": "32.777291", "longitude": "35.220571", "types": "locality, political"},
"בית אל": {"formatted_address": "Beit El", "latitude": "31.9416", "longitude": "35.222734", "types": "locality, political"},
"בית אריה": {"formatted_address": "Beit Aryeh-Ofarim", "latitude": "32.040059", "longitude": "35.049472", "types": "locality, political"},
"בית ברל": {"formatted_address": "Beit Berl, Israel", "latitude": "32.199789", "longitude": "34.926039", "types": "locality, political"},
"בית ג'ן": {"formatted_address": "Beit Jann, Israel", "latitude": "32.965655", "longitude": "35.381268", "types": "locality, political"},
"בית גדן": {"formatted_address": "Beit Dagan, Israel", "latitude": "32.0017816", "longitude": "34.8297087", "types": "locality, political"},
"בית השיטה": {"formatted_address": "Beit HaShita, Israel", "latitude": "32.550874", "longitude": "35.439351", "types": "locality, political"},
"בית קמה": {"formatted_address": "Beit Kama, Israel", "latitude": "31.446566", "longitude": "34.762248", "types": "locality, political"},
"בית שאן": {"formatted_address": "Beit She'an, Israel", "latitude": "32.497103", "longitude": "35.497336", "types": "locality, political"},
"בית-גן": {"formatted_address": "Beit Jann, Israel", "latitude": "32.965655", "longitude": "35.381268", "types": "locality, political"},
"בית-שאן": {"formatted_address": "Beit She'an, Israel", "latitude": "32.497103", "longitude": "35.497336", "types": "locality, political"},
"בית-שמש": {"formatted_address": "Bet Shemesh, Israel", "latitude": "31.747041", "longitude": "34.988099", "types": "locality, political"},
"ביתר": {"formatted_address": "Jerusalem, Israel", "latitude": "31.7548442", "longitude": "35.1743128", "types": "establishment, point_of_interest"},
"ביתר עילית": {"formatted_address": "Betar Illit", "latitude": "31.7010023", "longitude": "35.1119254", "types": "locality, political"},
"בן שמן": {"formatted_address": "Ben Shemen Youth Village, Israel", "latitude": "31.959019", "longitude": "34.927831", "types": "locality, political"},
"בני ברק": {"formatted_address": "Bnei Brak, Israel", "latitude": "32.084932", "longitude": "34.835226", "types": "locality, political"},
"בני עיש": {"formatted_address": "Bnei Ayish, Israel", "latitude": "31.790235", "longitude": "34.759291", "types": "locality, political"},
"בנימין": {"formatted_address": "פסגות, 9062400", "latitude": "31.9002462", "longitude": "35.22286", "types": "establishment, point_of_interest"},
"בנימינה": {"formatted_address": "Binyamina-Giv'at Ada, Israel", "latitude": "32.517078", "longitude": "34.955096", "types": "locality, political"},
"בנימינה-גבעת עדה": {"formatted_address": "Binyamina-Giv'at Ada, Israel", "latitude": "32.517078", "longitude": "34.955096", "types": "locality, political"},
"בסמה": {"formatted_address": "Basma, Israel", "latitude": "32.529401", "longitude": "35.103199", "types": "locality, political"},
"בסמת טבעון": {"formatted_address": "Basmat Tab'un, Israel", "latitude": "32.736287", "longitude": "35.1532", "types": "locality, political"},
"ברכה": {"formatted_address": "Har Brakha", "latitude": "32.193264", "longitude": "35.264885", "types": "locality, political"},
"ברעם": {"formatted_address": "Bar'am, Israel", "latitude": "33.058979", "longitude": "35.433235", "types": "locality, political"},
"בת-ים": {"formatted_address": "Bat Yam, Israel", "latitude": "32.013186", "longitude": "34.748019", "types": "locality, political"},
"ג'דיידה-מכר": {"formatted_address": "Jadeidi-Makr, Israel", "latitude": "32.928656", "longitude": "35.150573", "types": "locality, political"},
"ג'ולס": {"formatted_address": "Julis, Israel", "latitude": "32.94498", "longitude": "35.184243", "types": "locality, political"},
"גבע": {"formatted_address": "Geva, Israel", "latitude": "32.56653", "longitude": "35.37216", "types": "locality, political"},
"גבעת אלה": {"formatted_address": "Givat Ela, Israel", "latitude": "32.722007", "longitude": "35.244822", "types": "locality, political"},
"גבעת זאב": {"formatted_address": "Giv'at Ze'ev", "latitude": "31.861189", "longitude": "35.167252", "types": "locality, political"},
"גבעת חביבה": {"formatted_address": "Israel", "latitude": "32.457665", "longitude": "35.020061", "types": "establishment, point_of_interest"},
"גבעת חיים": {"formatted_address": "Givat Haim, Israel", "latitude": "32.396745", "longitude": "34.932978", "types": "locality, political"},
"גבעת שמואל": {"formatted_address": "Giv'at Shmuel, Israel", "latitude": "32.077299", "longitude": "34.849206", "types": "locality, political"},
"גבעתיים": {"formatted_address": "Giv'atayim, Israel", "latitude": "32.072176", "longitude": "34.808871", "types": "locality, political"},
"גבת": {"formatted_address": "Gvat, Israel", "latitude": "32.67656", "longitude": "35.213151", "types": "locality, political"},
"גדרה": {"formatted_address": "Gedera, Israel", "latitude": "31.8123014", "longitude": "34.7770192", "types": "locality, political"},
"גוליס": {"formatted_address": "Julis, Israel", "latitude": "32.94498", "longitude": "35.184243", "types": "locality, political"},
"גוש חלב": {"formatted_address": "Jish, Israel", "latitude": "33.021266", "longitude": "35.447949", "types": "locality, political"},
"גזר": {"formatted_address": "Gezer, Israel", "latitude": "31.876349", "longitude": "34.92111", "types": "locality, political"},
"גינוסר": {"formatted_address": "Ginosar, Israel", "latitude": "32.848666", "longitude": "35.523152", "types": "locality, political"},
"גיסר אל זרקא": {"formatted_address": "Jisr az-Zarqa, Israel", "latitude": "32.536262", "longitude": "34.911569", "types": "locality, political"},
"גלגוליה": {"formatted_address": "Jaljulia, Israel", "latitude": "32.1524568", "longitude": "34.9539749", "types": "locality, political"},
"גליל מערבי": {"formatted_address": "דרך המכללה, Acre, 2412101, Israel", "latitude": "32.936293", "longitude": "35.086601", "types": "establishment, point_of_interest"},
"גליל עליון": {"formatted_address": "Dan Dayan St 2, Qiryat Shemona, Israel", "latitude": "33.2110595", "longitude": "35.5719629", "types": "establishment, local_government_office, point_of_interest"},
"גן יבנה": {"formatted_address": "Gan Yavne, Israel", "latitude": "31.783056", "longitude": "34.703101", "types": "locality, political"},
"גני עם": {"formatted_address": "Ganei Am, Israel", "latitude": "32.149838", "longitude": "34.903358", "types": "locality, political"},
"גני תקוה": {"formatted_address": "Ganei Tikva, Israel", "latitude": "32.060497", "longitude": "34.873121", "types": "locality, political"},
"געתון": {"formatted_address": "Ga'aton, Israel", "latitude": "33.006075", "longitude": "35.213831", "types": "locality, political"},
"גשר": {"formatted_address": "Gesher, Israel", "latitude": "32.621205", "longitude": "35.550376", "types": "locality, political"},
"גת": {"formatted_address": "Jat, Israel", "latitude": "32.39693", "longitude": "35.035914", "types": "locality, political"},
"דאלית אל-כרמל": {"formatted_address": "Daliyat al-Karmel, Israel", "latitude": "32.693796", "longitude": "35.055447", "types": "locality, political"},
"דבוריה": {"formatted_address": "Daburiyya, Israel", "latitude": "32.69412", "longitude": "35.368513", "types": "locality, political"},
"דבורייה": {"formatted_address": "Daburiyya, Israel", "latitude": "32.69412", "longitude": "35.368513", "types": "locality, political"},
"דגניה א'": {"formatted_address": "Degania Alef, Israel", "latitude": "32.706938", "longitude": "35.575062", "types": "locality, political"},
"דייר אל-אסד": {"formatted_address": "Deir al-Asad, Israel", "latitude": "32.93445", "longitude": "35.268394", "types": "locality, political"},
"דייר-חנא": {"formatted_address": "Deir Hanna, Israel", "latitude": "32.862316", "longitude": "35.365253", "types": "locality, political"},
"דימונה": {"formatted_address": "Dimona, Israel", "latitude": "31.069419", "longitude": "35.033363", "types": "locality, political"},
"דיר אל-אסד": {"formatted_address": "Deir al-Asad, Israel", "latitude": "32.93445", "longitude": "35.268394", "types": "locality, political"},
"דיר חנא": {"formatted_address": "Deir Hanna, Israel", "latitude": "32.862316", "longitude": "35.365253", "types": "locality, political"},
"דלית אל כרמל": {"formatted_address": "Daliyat al-Karmel, Israel", "latitude": "32.693796", "longitude": "35.055447", "types": "locality, political"},
"הוד השרון": {"formatted_address": "Hod Hasharon, Israel", "latitude": "32.149961", "longitude": "34.8838788", "types": "locality, political"},
"הזורע": {"formatted_address": "HaZore'a, Israel", "latitude": "32.644516", "longitude": "35.11918", "types": "locality, political"},
"הרצליה": {"formatted_address": "Herzliya, Israel", "latitude": "32.162413", "longitude": "34.844675", "types": "locality, political"},
"זכרון יעקב": {"formatted_address": "Zikhron Ya'akov, Israel", "latitude": "32.573905", "longitude": "34.951977", "types": "locality, political"},
"זמר": {"formatted_address": "Zemer, Israel", "latitude": "32.365684", "longitude": "35.034651", "types": "locality, political"},
"זרזיר": {"formatted_address": "Zarzir, Israel", "latitude": "32.723291", "longitude": "35.220436", "types": "locality, political"},
"חדרה": {"formatted_address": "Hadera, Israel", "latitude": "32.4340458", "longitude": "34.9196518", "types": "locality, political"},
"חולון": {"formatted_address": "Holon, Israel", "latitude": "32.015833", "longitude": "34.787384", "types": "locality, political"},
"חופית": {"formatted_address": "Hofit, Israel", "latitude": "32.386082", "longitude": "34.874078", "types": "locality, political"},
"חורה": {"formatted_address": "Hura, Israel", "latitude": "31.300399", "longitude": "34.935688", "types": "locality, political"},
"חורפיש": {"formatted_address": "Hurfeish, Israel", "latitude": "33.016688", "longitude": "35.347106", "types": "locality, political"},
"חיפה": {"formatted_address": "Haifa, Israel", "latitude": "32.7940463", "longitude": "34.989571", "types": "locality, political"},
"חנתון": {"formatted_address": "Hanaton, Israel", "latitude": "32.783051", "longitude": "35.245063", "types": "locality, political"},
"חצור הגלילית": {"formatted_address": "Hatzor HaGlilit, Israel", "latitude": "32.980382", "longitude": "35.543548", "types": "locality, political"},
"חצרים": {"formatted_address": "Hatzerim, Israel", "latitude": "31.240603", "longitude": "34.717427", "types": "locality, political"},
"חריש": {"formatted_address": "Harish, Israel, Israel", "latitude": "32.4618771", "longitude": "35.0455828", "types": "locality, political"},
"חשמונאים": {"formatted_address": "Hashmona'im", "latitude": "31.932631", "longitude": "35.023269", "types": "locality, political"},
"טבריה": {"formatted_address": "Tiberias, Israel", "latitude": "32.795859", "longitude": "35.530973", "types": "locality, political"},
"טובא-זנגריה": {"formatted_address": "Tuba-Zangariyye, Israel", "latitude": "32.96621", "longitude": "35.592018", "types": "locality, political"},
"טורעאן": {"formatted_address": "Tur'an, Israel", "latitude": "32.775137", "longitude": "35.378344", "types": "locality, political"},
"טייבה": {"formatted_address": "Taibe", "latitude": "31.958114", "longitude": "35.298483", "types": "locality, political"},
"טירת כרמל": {"formatted_address": "Tirat Carmel, Israel", "latitude": "32.762127", "longitude": "34.97298", "types": "locality, political"},
"טמרה": {"formatted_address": "Tamra, Israel", "latitude": "32.852247", "longitude": "35.201315", "types": "locality, political"},
"יבנאל": {"formatted_address": "Yavne'el, Israel", "latitude": "32.708765", "longitude": "35.503778", "types": "locality, political"},
"יבנה": {"formatted_address": "Yavne, Israel", "latitude": "31.877958", "longitude": "34.739449", "types": "locality, political"},
"יד בנימין": {"formatted_address": "Yad Binyamin, Israel", "latitude": "31.796685", "longitude": "34.82037", "types": "locality, political"},
"יד מרדכי": {"formatted_address": "Yad Mordechai, Israel", "latitude": "31.586963", "longitude": "34.5575", "types": "locality, political"},
"יהוד מונוסון": {"formatted_address": "Yehud, Israel", "latitude": "32.030339", "longitude": "34.8870985", "types": "locality, political"},
"יהוד-מונוסון": {"formatted_address": "Yehud, Israel", "latitude": "32.030339", "longitude": "34.8870985", "types": "locality, political"},
"יהודה": {"formatted_address": "רח' האורגים 13, חולון, Israel", "latitude": "32.0111447", "longitude": "34.7997137", "types": "establishment, hardware_store, point_of_interest, store"},
"יוסף": {"formatted_address": "Yosef St, Haifa, Israel", "latitude": "32.806936", "longitude": "34.997842", "types": "route"},
"ינוח גת": {"formatted_address": "Jat, Yanuh Jat, Israel", "latitude": "32.973695", "longitude": "35.233118", "types": "neighborhood, political"},
"ינינה": {"formatted_address": "Moshe Dayan St 22, Holon, Israel", "latitude": "32.0008362", "longitude": "34.7669821", "types": "establishment, moving_company, point_of_interest, storage"},
"יסוד המעלה": {"formatted_address": "Yesud HaMa'ala, Israel", "latitude": "33.05358", "longitude": "35.589013", "types": "locality, political"},
"יפיע": {"formatted_address": "Yafa an-Naseriyye, Israel", "latitude": "32.695002", "longitude": "35.28201", "types": "locality, political"},
"יפעת": {"formatted_address": "Yifat, Israel", "latitude": "32.675853", "longitude": "35.223982", "types": "locality, political"},
"יקום": {"formatted_address": "Yakum, Israel", "latitude": "32.249196", "longitude": "34.841903", "types": "locality, political"},
"יקנעם עילית": {"formatted_address": "Yokne'am Illit, Israel", "latitude": "32.660225", "longitude": "35.104606", "types": "locality, political"},
"יראון": {"formatted_address": "Yir'on, Israel", "latitude": "33.077239", "longitude": "35.454291", "types": "locality, political"},
"ירוחם": {"formatted_address": "Yeruham, Israel", "latitude": "30.987804", "longitude": "34.929741", "types": "locality, political"},
"ירושלים": {"formatted_address": "Jerusalem, Israel", "latitude": "31.768319", "longitude": "35.21371", "types": "locality, political"},
"ירכא": {"formatted_address": "Yarka, Israel", "latitude": "32.953492", "longitude": "35.21199", "types": "locality, political"},
"כאבול": {"formatted_address": "Kabul, Israel", "latitude": "32.8699737", "longitude": "35.2054376", "types": "locality, political"},
"כאוכב אבו אלהיגא": {"formatted_address": "Kaukab Abu al-Hija, Israel", "latitude": "32.831888", "longitude": "35.248701", "types": "locality, political"},
"כוכב השחר": {"formatted_address": "Kohav HaShahar", "latitude": "31.960264", "longitude": "35.349421", "types": "locality, political"},
"כסיפה": {"formatted_address": "Kuseife, Israel", "latitude": "31.249246", "longitude": "35.083681", "types": "locality, political"},
"כסרא סמיע": {"formatted_address": "Kisra-Sumei, Israel", "latitude": "32.97232", "longitude": "35.298528", "types": "locality, political"},
"כעבייה-טבאש-חגאגרה": {"formatted_address": "Tabash Village, Ka'abiyye-Tabbash-Hajajre, Israel", "latitude": "32.748016", "longitude": "35.171925", "types": "political, sublocality, sublocality_level_1"},
"כפר הרא\"ה": {"formatted_address": "Kfar Haroeh, Israel", "latitude": "32.391037", "longitude": "34.910917", "types": "locality, political"},
"כפר ורדים": {"formatted_address": "Kfar Vradim, Israel", "latitude": "32.995088", "longitude": "35.269101", "types": "locality, political"},
"כפר יאסיף": {"formatted_address": "Kafr Yasif, Israel", "latitude": "32.9520318", "longitude": "35.1599957", "types": "locality, political"},
"כפר יונה": {"formatted_address": "Kfar Yona, Israel", "latitude": "32.317719", "longitude": "34.933615", "types": "locality, political"},
"כפר יסיף": {"formatted_address": "Kafr Yasif, Israel", "latitude": "32.9520318", "longitude": "35.1599957", "types": "locality, political"},
"כפר כמא": {"formatted_address": "Kfar Kama, Israel", "latitude": "32.721105", "longitude": "35.442834", "types": "locality, political"},
"כפר כנא": {"formatted_address": "Kafr Kanna, Israel", "latitude": "32.7481978", "longitude": "35.3438402", "types": "locality, political"},
"כפר מנדא": {"formatted_address": "Kafr Manda, Israel", "latitude": "32.81236", "longitude": "35.258613", "types": "locality, political"},
"כפר סבא": {"formatted_address": "Kefar Sava, Israel", "latitude": "32.178195", "longitude": "34.90761", "types": "locality, political"},
"כפר קאסם": {"formatted_address": "Kafr Qasim, Israel", "latitude": "32.114093", "longitude": "34.972767", "types": "locality, political"},
"כפר קמה": {"formatted_address": "Kfar Kama, Israel", "latitude": "32.721105", "longitude": "35.442834", "types": "locality, political"},
"כפר קרע": {"formatted_address": "Kafr Qara, Israel", "latitude": "32.505518", "longitude": "35.054251", "types": "locality, political"},
"כפר שמריהו": {"formatted_address": "Kfar Shmaryahu, Israel", "latitude": "32.187123", "longitude": "34.823124", "types": "locality, political"},
"כפר-ברא": {"formatted_address": "Kafr Bara, Israel", "latitude": "32.130911", "longitude": "34.970108", "types": "locality, political"},
"כפר-כנא": {"formatted_address": "Kafr Kanna, Israel", "latitude": "32.7481978", "longitude": "35.3438402", "types": "locality, political"},
"כרמיאל": {"formatted_address": "Karmiel, Israel", "latitude": "32.914671", "longitude": "35.292417", "types": "locality, political"},
"להב": {"formatted_address": "Lahav, Israel", "latitude": "31.379363", "longitude": "34.871311", "types": "locality, political"},
"להבים": {"formatted_address": "Lehavim, Israel", "latitude": "31.373835", "longitude": "34.816952", "types": "locality, political"},
"לוד": {"formatted_address": "Lod, Israel", "latitude": "31.951014", "longitude": "34.888075", "types": "locality, political"},
"לקיה": {"formatted_address": "Laqiya, Israel", "latitude": "31.324884", "longitude": "34.866219", "types": "locality, political"},
"מ.א. אבו בסמה": {"formatted_address": "Tirabin al-Sana, Israel", "latitude": "31.345481", "longitude": "34.739126", "types": "locality, political"},
"מ.א. אל-בטוף": {"formatted_address": "פכר עוזייר, Uzeir, 17903, Israel", "latitude": "32.7906731", "longitude": "35.3252718", "types": "establishment, point_of_interest"},
"מ.א. אלונה": {"formatted_address": "ד.נ מנשה, Amikam, 37830, Israel", "latitude": "32.564626", "longitude": "35.020326", "types": "establishment, point_of_interest"},
"מ.א. אשכול": {"formatted_address": "Eshkol Regional Council, Israel", "latitude": "31.2068084", "longitude": "34.4641848", "types": "administrative_area_level_4, political"},
"מ.א. באר-טוביה": {"formatted_address": "Be'er Tuvia Regional Council, Israel", "latitude": "31.766667", "longitude": "34.716667", "types": "locality, political"},
"מ.א. בוסתאן אל-מרג": {"formatted_address": "Sulam, Israel", "latitude": "32.605633", "longitude": "35.334306", "types": "establishment, point_of_interest"},
"מ.א. גדרות": {"formatted_address": "Gederot Regional Council, Israel", "latitude": "31.830759", "longitude": "34.7354031", "types": "administrative_area_level_4, political"},
"מ.א. גולן": {"formatted_address": "Qatsrin", "latitude": "32.9932286", "longitude": "35.6913979", "types": "establishment, local_government_office, point_of_interest"},
"מ.א. גוש עציון": {"formatted_address": "Gush Etsyon St, Tel Aviv-Yafo, Israel", "latitude": "32.054717", "longitude": "34.788725", "types": "route"},
"מ.א. גזר": {"formatted_address": "Gezer Regional Council, Israel", "latitude": "31.8592289", "longitude": "34.8844867", "types": "administrative_area_level_4, political"},
"מ.א. הגלבוע": {"formatted_address": "Gilboa Regional Council, Israel", "latitude": "32.5656671", "longitude": "35.4124355", "types": "administrative_area_level_4, political"},
"מ.א. הגליל העליון": {"formatted_address": "Upper Galilee Regional Council, Israel", "latitude": "33.22", "longitude": "35.6225", "types": "locality, political"},
"מ.א. הגליל התחתון": {"formatted_address": "א.ת. גליל תחתון, פארק תעשיות הגליל התחתון, Israel", "latitude": "32.7461638", "longitude": "35.5028379", "types": "establishment, point_of_interest"},
"מ.א. הערבה התיכונה": {"formatted_address": "Be'er Sheva, Israel", "latitude": "31.240139", "longitude": "34.788478", "types": "establishment, lodging, point_of_interest"},
"מ.א. הר חברון": {"formatted_address": "Har Hevron Regional Council", "latitude": "31.4174932", "longitude": "35.0828588", "types": "administrative_area_level_4, political"},
"מ.א. זבולון": {"formatted_address": "Zevulun Regional Council, Israel", "latitude": "32.795", "longitude": "35.115", "types": "locality, political"},
"מ.א. חבל אילות": {"formatted_address": "Hevel Eilot Regional Council, Israel", "latitude": "30.130877", "longitude": "34.9506625", "types": "administrative_area_level_4, political"},
"מ.א. חבל יבנה": {"formatted_address": "Hevel Yavne Regional Council, Israel", "latitude": "31.856", "longitude": "34.761", "types": "locality, political"},
"מ.א. חבל מודיעין": {"formatted_address": "Hevel Modi'in Regional Council, Israel", "latitude": "31.9716517", "longitude": "34.9396367", "types": "administrative_area_level_4, political"},
"מ.א. חוף אשקלון": {"formatted_address": "Hof Ashkelon Regional Council, Israel", "latitude": "31.717", "longitude": "34.633", "types": "locality, political"},
"מ.א. חוף הכרמל": {"formatted_address": "Hof HaCarmel Regional Council, Israel", "latitude": "32.6668798", "longitude": "34.9727096", "types": "administrative_area_level_4, political"},
"מ.א. יואב": {"formatted_address": "Yoav Regional Council, Israel", "latitude": "31.6", "longitude": "34.9", "types": "locality, political"},
"מ.א. לב השרון": {"formatted_address": "Lev HaSharon Regional Council, Israel", "latitude": "32.261839", "longitude": "34.894516", "types": "locality, political"},
"מ.א. לכיש": {"formatted_address": "Lakhish Regional Council, Israel", "latitude": "31.567", "longitude": "34.85", "types": "locality, political"},
"מ.א. מבואות": {"formatted_address": "Mevo'ot HaHermon Regional Council, Israel", "latitude": "33.0614193", "longitude": "35.5548422", "types": "administrative_area_level_4, political"},
"מ.א. מבואות החרמון": {"formatted_address": "Mevo'ot HaHermon Regional Council, Israel", "latitude": "33.0614193", "longitude": "35.5548422", "types": "administrative_area_level_4, political"},
"מ.א. מגידו": {"formatted_address": "Megido St, Tel Aviv-Yafo, Israel", "latitude": "32.080434", "longitude": "34.7782485", "types": "route"},
"מ.א. מגילות ים המלח": {"formatted_address": "", "latitude": "31.7737352", "longitude": "35.5031106", "types": "establishment, local_government_office, point_of_interest"},
"מ.א. מטה אשר": {"formatted_address": "Mateh Asher Regional Council, Israel", "latitude": "32.970311", "longitude": "35.0937", "types": "locality, political"},
"מ.א. מטה בנימין": {"formatted_address": "Mateh Binyamin Regional Council", "latitude": "31.9485955", "longitude": "35.1708741", "types": "administrative_area_level_4, political"},
"מ.א. מטה יהודה": {"formatted_address": "Mateh Yehuda Regional Council, Israel", "latitude": "31.7916936", "longitude": "34.9727096", "types": "administrative_area_level_4, political"},
"מ.א. מנשה": {"formatted_address": "Menashe Regional Council, Israel", "latitude": "32.466667", "longitude": "35.016667", "types": "locality, political"},
"מ.א. מעלה יוסף": {"formatted_address": "Ma'ale Yosef Regional Council, Israel", "latitude": "33.0557003", "longitude": "35.2697802", "types": "administrative_area_level_4, political"},
"מ.א. מרום הגליל": {"formatted_address": "Merom HaGalil Regional Council, Israel", "latitude": "32.9916546", "longitude": "35.4672368", "types": "administrative_area_level_4, political"},
"מ.א. מרחבים": {"formatted_address": "Merhavim Regional Council, Israel", "latitude": "31.3138394", "longitude": "34.5749882", "types": "administrative_area_level_4, political"},
"מ.א. משגב": {"formatted_address": "Misgav Regional Council, Israel", "latitude": "32.8782643", "longitude": "35.2697802", "types": "administrative_area_level_4, political"},
"מ.א. נחל שורק": {"formatted_address": "Nahal Sorek Regional Council, Israel", "latitude": "31.7967088", "longitude": "34.8127381", "types": "administrative_area_level_4, political"},
"מ.א. עמק הירדן": {"formatted_address": "Emek HaYarden, Israel", "latitude": "32.7268078", "longitude": "35.5548422", "types": "administrative_area_level_4, political"},
"מ.א. עמק המעיינות": {"formatted_address": "Valley of Springs Regional Council, Israel", "latitude": "32.494236", "longitude": "35.519936", "types": "locality, political"},
"מ.א. עמק חפר": {"formatted_address": "Hefer Valley Regional Council, Israel", "latitude": "32.3493873", "longitude": "34.9727096", "types": "administrative_area_level_4, political"},
"מ.א. עמק יזראל": {"formatted_address": "Jezreel Valley, Israel", "latitude": "32.6362394", "longitude": "35.1928634", "types": "administrative_area_level_4, political"},
"מ.א. עמק לוד": {"formatted_address": "Lod Valley Regional Council, Israel", "latitude": "31.9826199", "longitude": "34.8568982", "types": "administrative_area_level_4, political"},
"מ.א. ערבות הירדן": {"formatted_address": "מ.א ערבות הירדן, Jerusalem, 91906, Israel", "latitude": "31.768319", "longitude": "35.21371", "types": "establishment, point_of_interest"},
"מ.א. רמת נגב": {"formatted_address": "Ramat Negev Regional Council, Israel", "latitude": "30.8303673", "longitude": "34.7740793", "types": "administrative_area_level_4, political"},
"מ.א. שדות נגב": {"formatted_address": "Sdot Negev Regional Council, Israel", "latitude": "31.4144482", "longitude": "34.5417619", "types": "administrative_area_level_4, political"},
"מ.א. שומרון": {"formatted_address": "Ha-Shomron St, Tel Aviv-Yafo, Israel", "latitude": "32.0602067", "longitude": "34.7777275", "types": "route"},
"מ.א. שער הנגב": {"formatted_address": "Sha'ar HaNegev Regional Council, Israel", "latitude": "31.5077257", "longitude": "34.6303372", "types": "administrative_area_level_4, political"},
"מ.א. שפיר": {"formatted_address": "Shafir Regional Council, Israel", "latitude": "31.6980299", "longitude": "34.7084325", "types": "locality, political"},
"מ.א. תמר": {"formatted_address": "Tamar Regional Council, Israel", "latitude": "31.45", "longitude": "35.383333", "types": "locality, political"},
"מבשרת ציון": {"formatted_address": "Mevaseret Zion, Israel", "latitude": "31.804052", "longitude": "35.157891", "types": "locality, political"},
"מג'ד אל כרום": {"formatted_address": "Majd al-Krum, Israel", "latitude": "32.920132", "longitude": "35.25665", "types": "locality, political"},
"מגאר": {"formatted_address": "Maghar, Israel", "latitude": "32.890704", "longitude": "35.40461", "types": "locality, political"},
"מגד אל-כרום": {"formatted_address": "Majd al-Krum, Israel", "latitude": "32.920132", "longitude": "35.25665", "types": "locality, political"},
"מגדל העמק": {"formatted_address": "Migdal HaEmek, Israel", "latitude": "32.6778114", "longitude": "35.2417497", "types": "locality, political"},
"מגדל שמס": {"formatted_address": "Majdal Shams", "latitude": "33.2690961", "longitude": "35.772122", "types": "locality, political"},
"מודיעין עילית": {"formatted_address": "Modi'in Ilit", "latitude": "31.932477", "longitude": "35.042265", "types": "locality, political"},
"מודיעין-מכבים-רעות": {"formatted_address": "Modi'in-Maccabim-Re'ut, Israel", "latitude": "31.890267", "longitude": "35.010397", "types": "locality, political"},
"מזכרת בתיה": {"formatted_address": "Mazkeret Batya, Israel", "latitude": "31.853167", "longitude": "34.842421", "types": "locality, political"},
"מזרעה": {"formatted_address": "Mazra'a, Israel", "latitude": "32.983652", "longitude": "35.098934", "types": "locality, political"},
"מטולה": {"formatted_address": "Metula, Israel", "latitude": "33.277232", "longitude": "35.578235", "types": "locality, political"},
"מסעדה": {"formatted_address": "Office And Restaurant, Siquijor Circumferential Road, San Juan, Siquijor, Philippines", "latitude": "9.1496972", "longitude": "123.5018595", "types": "premise"},
"מעברות": {"formatted_address": "Ma'abarot, Israel", "latitude": "32.364197", "longitude": "34.905733", "types": "locality, political"},
"מעיליא": {"formatted_address": "Mi'ilya, Israel", "latitude": "33.027194", "longitude": "35.256304", "types": "locality, political"},
"מעין ברוך": {"formatted_address": "Ma'ayan Baruch, Israel", "latitude": "33.239349", "longitude": "35.609359", "types": "locality, political"},
"מעלה אדומים": {"formatted_address": "Ma'ale Adumim", "latitude": "31.777369", "longitude": "35.297955", "types": "locality, political"},
"מעלה אפרים": {"formatted_address": "Ma'ale Efraim", "latitude": "32.071304", "longitude": "35.4039", "types": "locality, political"},
"מעלה עירון": {"formatted_address": "Ma'ale Iron, Israel", "latitude": "32.554128", "longitude": "35.182499", "types": "locality, political"},
"מעלות תרשיחא": {"formatted_address": "Ma'alot-Tarshiha, Israel", "latitude": "33.015026", "longitude": "35.276017", "types": "locality, political"},
"מעלות-תרשיחא": {"formatted_address": "Ma'alot-Tarshiha, Israel", "latitude": "33.015026", "longitude": "35.276017", "types": "locality, political"},
"מצפה רמון": {"formatted_address": "Mitzpe Ramon, Israel", "latitude": "30.610203", "longitude": "34.801898", "types": "locality, political"},
"מקווה ישראל": {"formatted_address": "Mikve Yisrael St 12, Holon, Israel", "latitude": "32.0294078", "longitude": "34.7809232", "types": "establishment, point_of_interest, school"},
"מרחביה": {"formatted_address": "Merhavia, Israel", "latitude": "32.60585", "longitude": "35.30725", "types": "locality, political"},
"מרכז שפירא": {"formatted_address": "Merkaz Shapira, Israel", "latitude": "31.696927", "longitude": "34.707319", "types": "locality, political"},
"משגב": {"formatted_address": "Misgav Regional Council, Israel", "latitude": "32.8782643", "longitude": "35.2697802", "types": "administrative_area_level_4, political"},
"משהד": {"formatted_address": "Mashhad, Razavi Khorasan Province, Iran", "latitude": "36.2604623", "longitude": "59.6167549", "types": "locality, political"},
"נבטים": {"formatted_address": "Nevatim, Israel", "latitude": "31.219761", "longitude": "34.882488", "types": "locality, political"},
"נהריה": {"formatted_address": "Nahariyya, Israel", "latitude": "33.0085361", "longitude": "35.0980514", "types": "locality, political"},
"נהרייה": {"formatted_address": "Nahariyya, Israel", "latitude": "33.0085361", "longitude": "35.0980514", "types": "locality, political"},
"נחף": {"formatted_address": "Nahf, Israel", "latitude": "32.934675", "longitude": "35.31652", "types": "locality, political"},
"נחשולים": {"formatted_address": "Nahsholim, Israel", "latitude": "32.61309", "longitude": "34.92225", "types": "locality, political"},
"ניר גלים": {"formatted_address": "Nir Galim, Israel", "latitude": "31.82552", "longitude": "34.68254", "types": "locality, political"},
"נס ציונה": {"formatted_address": "Ness Ziona, Israel", "latitude": "31.932111", "longitude": "34.801327", "types": "locality, political"},
"נצרת": {"formatted_address": "Nazareth, Israel", "latitude": "32.699635", "longitude": "35.303546", "types": "locality, political"},
"נצרת עילית": {"formatted_address": "Nazareth Iliit, Israel", "latitude": "32.711539", "longitude": "35.324812", "types": "locality, political"},
"נשר": {"formatted_address": "Nesher, Israel", "latitude": "32.7649", "longitude": "35.049191", "types": "locality, political"},
"נתיבות": {"formatted_address": "Netivot, Israel", "latitude": "31.423196", "longitude": "34.595254", "types": "locality, political"},
"נתניה": {"formatted_address": "Netanya, Israel", "latitude": "32.321458", "longitude": "34.853196", "types": "locality, political"},
"סאגור": {"formatted_address": "Sajur, Israel", "latitude": "32.943109", "longitude": "35.343616", "types": "locality, political"},
"סאסא": {"formatted_address": "Sasa, Israel", "latitude": "33.02866", "longitude": "35.394569", "types": "locality, political"},
"סח'נין": {"formatted_address": "Sakhnin, Israel", "latitude": "32.864167", "longitude": "35.294547", "types": "locality, political"},
"סחנין": {"formatted_address": "Sakhnin, Israel", "latitude": "32.864167", "longitude": "35.294547", "types": "locality, political"},
"סעד": {"formatted_address": "Sa'ad, Israel", "latitude": "31.470185", "longitude": "34.534356", "types": "locality, political"},
"עומר": {"formatted_address": "Omer, Israel", "latitude": "31.264305", "longitude": "34.849864", "types": "locality, political"},
"עוספייא": {"formatted_address": "Isfiya, Israel", "latitude": "32.720737", "longitude": "35.059087", "types": "locality, political"},
"עילבון": {"formatted_address": "Eilabun, Israel", "latitude": "32.837949", "longitude": "35.399996", "types": "locality, political"},
"עילוט": {"formatted_address": "Ilut, Israel", "latitude": "32.717249", "longitude": "35.261482", "types": "locality, political"},
"עימנואל": {"formatted_address": "Immanuel", "latitude": "32.160688", "longitude": "35.136036", "types": "locality, political"},
"עין דור": {"formatted_address": "Ein Dor, Israel", "latitude": "32.655468", "longitude": "35.416388", "types": "locality, political"},
"עין הוד": {"formatted_address": "Ein Hod, Israel", "latitude": "32.700292", "longitude": "34.982716", "types": "locality, political"},
"עין חרוד": {"formatted_address": "Ein Harod, Israel", "latitude": "32.563099", "longitude": "35.391666", "types": "locality, political"},
"עין מאהל": {"formatted_address": "Ein Mahil, Israel", "latitude": "32.724295", "longitude": "35.353369", "types": "locality, political"},
"עין צורים": {"formatted_address": "Ein Tzurim, Israel", "latitude": "31.694936", "longitude": "34.718683", "types": "locality, political"},
"עין קיניה": {"formatted_address": "Ein Qiniyye", "latitude": "33.2366802", "longitude": "35.7313062", "types": "locality, political"},
"עין שמר": {"formatted_address": "Ein Shemer, Israel", "latitude": "32.461917", "longitude": "35.00673", "types": "locality, political"},
"עין-כרם": {"formatted_address": "Ein Karem, Jerusalem, Israel", "latitude": "31.7671028", "longitude": "35.1623714", "types": "neighborhood, political"},
"עכו": {"formatted_address": "Acre, Israel", "latitude": "32.933052", "longitude": "35.082678", "types": "locality, political"},
"עמק הירדן": {"formatted_address": "Emek HaYarden, Israel", "latitude": "32.7268078", "longitude": "35.5548422", "types": "administrative_area_level_4, political"},
"עמק חפר": {"formatted_address": "Hefer Valley Regional Council, Israel", "latitude": "32.3493873", "longitude": "34.9727096", "types": "administrative_area_level_4, political"},
"עספיא": {"formatted_address": "Isfiya, Israel", "latitude": "32.720737", "longitude": "35.059087", "types": "locality, political"},
"עפולה": {"formatted_address": "Afula, Israel", "latitude": "32.610493", "longitude": "35.287922", "types": "locality, political"},
"עפרה": {"formatted_address": "Ofra", "latitude": "31.955101", "longitude": "35.260324", "types": "locality, political"},
"עקיבא": {"formatted_address": "Akiva St, Ra'anana, Israel", "latitude": "32.1852596", "longitude": "34.8822301", "types": "route"},
"עראבה": {"formatted_address": "Arraba, Israel", "latitude": "32.853705", "longitude": "35.337167", "types": "locality, political"},
"ערד": {"formatted_address": "Arad, Israel", "latitude": "31.261447", "longitude": "35.214862", "types": "locality, political"},
"ערערה": {"formatted_address": "Ar'ara, Israel", "latitude": "32.496323", "longitude": "35.097292", "types": "locality, political"},
"ערערה-בנגב": {"formatted_address": "Ar'arat an-Naqab, Israel", "latitude": "31.160927", "longitude": "35.019757", "types": "locality, political"},
"פלמחים": {"formatted_address": "Palmachim, Israel", "latitude": "31.932705", "longitude": "34.706874", "types": "locality, political"},
"פסוטה": {"formatted_address": "Fassuta, Israel", "latitude": "33.04782", "longitude": "35.308827", "types": "locality, political"},
"פקיעין": {"formatted_address": "Peki'in, Israel", "latitude": "32.976209", "longitude": "35.335794", "types": "locality, political"},
"פרדס חנה-כרכור": {"formatted_address": "Pardes Hanna-Karkur, Israel", "latitude": "32.4728028", "longitude": "34.9742001", "types": "locality, political"},
"פרדס-חנה-כרכור": {"formatted_address": "Pardes Hanna-Karkur, Israel", "latitude": "32.4728028", "longitude": "34.9742001", "types": "locality, political"},
"פרדסיה": {"formatted_address": "Pardesiya, Israel", "latitude": "32.305011", "longitude": "34.911731", "types": "locality, political"},
"פרס חנה-כרכור": {"formatted_address": "Pardes Hanna-Karkur, Israel", "latitude": "32.4728028", "longitude": "34.9742001", "types": "locality, political"},
"פתח תקוה": {"formatted_address": "Petah Tikva, Israel", "latitude": "32.084041", "longitude": "34.887762", "types": "locality, political"},
"פתח תקווה": {"formatted_address": "Petah Tikva, Israel", "latitude": "32.084041", "longitude": "34.887762", "types": "locality, political"},
"צומת ראם": {"formatted_address": "צומת ראם, Kiryat Malakhi, Israel", "latitude": "31.760784", "longitude": "34.785018", "types": "establishment, gas_station, point_of_interest"},
"צמח": {"formatted_address": "Israel", "latitude": "32.70559", "longitude": "35.5865558", "types": "amusement_park, establishment, point_of_interest"},
"צפת": {"formatted_address": "Safed, Israel", "latitude": "32.964648", "longitude": "35.495997", "types": "locality, political"},
"צרעה": {"formatted_address": "Tsor'a, Israel", "latitude": "31.762653", "longitude": "34.966931", "types": "locality, political"},
"קדומים": {"formatted_address": "Kdumim", "latitude": "32.21239", "longitude": "35.157388", "types": "locality, political"},
"קיבוץ חניתה": {"formatted_address": "Hanita, Israel", "latitude": "33.087634", "longitude": "35.17343", "types": "locality, political"},
"קיבוץ לוחמי הגיטאות": {"formatted_address": "Lohamei HaGeta'ot, Israel", "latitude": "32.962661", "longitude": "35.096741", "types": "locality, political"},
"קיבוץ מעגן מיכאל": {"formatted_address": "Ma'agan Michael, Israel", "latitude": "32.55871", "longitude": "34.917816", "types": "locality, political"},
"קלנסווה": {"formatted_address": "Qalansawe, Israel", "latitude": "32.285791", "longitude": "34.981487", "types": "locality, political"},
"קצרין": {"formatted_address": "Qatsrin", "latitude": "32.990998", "longitude": "35.689865", "types": "locality, political"},
"קריית אונו": {"formatted_address": "Kiryat Ono, Israel", "latitude": "32.054863", "longitude": "34.858858", "types": "locality, political"},
"קריית ארבע": {"formatted_address": "Kiryat Arba", "latitude": "31.529326", "longitude": "35.115625", "types": "locality, political"},
"קריית טבעון": {"formatted_address": "Kiryat Tiv'on, Israel", "latitude": "32.716221", "longitude": "35.127483", "types": "locality, political"},
"קריית מלאכי": {"formatted_address": "Kiryat Malakhi, Israel", "latitude": "31.730202", "longitude": "34.746996", "types": "locality, political"},
"קריית שמונה": {"formatted_address": "Qiryat Shemona, Israel", "latitude": "33.207933", "longitude": "35.570246", "types": "locality, political"},
"קרית ארבע": {"formatted_address": "Kiryat Arba", "latitude": "31.529326", "longitude": "35.115625", "types": "locality, political"},
"קרית אתא": {"formatted_address": "Kiryat Ata, Israel", "latitude": "32.809144", "longitude": "35.119773", "types": "locality, political"},
"קרית ביאליק": {"formatted_address": "Kiryat Bialik, Israel", "latitude": "32.832154", "longitude": "35.088407", "types": "locality, political"},
"קרית גת": {"formatted_address": "Kiryat Gat, Israel", "latitude": "31.611148", "longitude": "34.768459", "types": "locality, political"},
"קרית טבעון": {"formatted_address": "Kiryat Tiv'on, Israel", "latitude": "32.716221", "longitude": "35.127483", "types": "locality, political"},
"קרית ים": {"formatted_address": "Kiryat Yam, Israel", "latitude": "32.849276", "longitude": "35.068929", "types": "locality, political"},
"קרית יערים": {"formatted_address": "Kiryat Ye'arim, Israel", "latitude": "31.802774", "longitude": "35.099945", "types": "locality, political"},
"קרית מוצקין": {"formatted_address": "Kiryat Motzkin, Israel", "latitude": "32.838202", "longitude": "35.079523", "types": "locality, political"},
"קרית מלאכי": {"formatted_address": "Kiryat Malakhi, Israel", "latitude": "31.730202", "longitude": "34.746996", "types": "locality, political"},
"קרית עקרון": {"formatted_address": "Kiryat Ekron, Israel", "latitude": "31.862547", "longitude": "34.8219576", "types": "locality, political"},
"קרית שמונה": {"formatted_address": "Qiryat Shemona, Israel", "latitude": "33.207933", "longitude": "35.570246", "types": "locality, political"},
"קרני שומרון": {"formatted_address": "Karnei Shomron", "latitude": "32.171553", "longitude": "35.097462", "types": "locality, political"},
"ראמה": {"formatted_address": "Rameh, Israel", "latitude": "32.937112", "longitude": "35.366984", "types": "locality, political"},
"ראש העין": {"formatted_address": "Rosh Haayin, Israel", "latitude": "32.095838", "longitude": "34.952177", "types": "locality, political"},
"ראש פינה": {"formatted_address": "Rosh Pinna, Israel", "latitude": "32.970422", "longitude": "35.542659", "types": "locality, political"},
"ראשון לציון": {"formatted_address": "Rishon LeTsiyon, Israel", "latitude": "31.9730015", "longitude": "34.7925013", "types": "locality, political"},
"רביבים": {"formatted_address": "Revivim, Israel", "latitude": "31.045195", "longitude": "34.721086", "types": "locality, political"},
"רהט": {"formatted_address": "Rahat, Israel", "latitude": "31.394548", "longitude": "34.753934", "types": "locality, political"},
"רחובות": {"formatted_address": "Rehovot, Israel", "latitude": "31.892773", "longitude": "34.811272", "types": "locality, political"},
"ריחאניה": {"formatted_address": "Rehaniya, Israel", "latitude": "33.049922", "longitude": "35.487062", "types": "locality, political"},
"ריינה": {"formatted_address": "Reineh, Israel", "latitude": "32.719924", "longitude": "35.317654", "types": "locality, political"},
"רכסים": {"formatted_address": "Rekhasim, Israel", "latitude": "32.749265", "longitude": "35.099581", "types": "locality, political"},
"רמלה": {"formatted_address": "Ramla, Israel", "latitude": "31.931566", "longitude": "34.872938", "types": "locality, political"},
"רמת גן": {"formatted_address": "Ramat Gan, Israel", "latitude": "32.068424", "longitude": "34.824785", "types": "locality, political"},
"רמת השרון": {"formatted_address": "Ramat Hasharon, Israel", "latitude": "32.137793", "longitude": "34.840278", "types": "locality, political"},
"רעננה": {"formatted_address": "Ra'anana, Israel", "latitude": "32.184781", "longitude": "34.871326", "types": "locality, political"},
"רשפון": {"formatted_address": "Rishpon, Israel", "latitude": "32.201856", "longitude": "34.824723", "types": "locality, political"},
"שבלי": {"formatted_address": "Shibli-Umm al-Ghanam, Israel", "latitude": "32.684167", "longitude": "35.396944", "types": "locality, political"},
"שגב-שלום": {"formatted_address": "Shaqib al-Salam, Israel", "latitude": "31.198361", "longitude": "34.839665", "types": "locality, political"},
"שדה בוקר": {"formatted_address": "Sde Boker, Israel", "latitude": "30.873611", "longitude": "34.793098", "types": "locality, political"},
"שדרות": {"formatted_address": "Sderot, Israel", "latitude": "31.522694", "longitude": "34.595581", "types": "locality, political"},
"שהם": {"formatted_address": "Shoham, Israel", "latitude": "31.9957581", "longitude": "34.9488403", "types": "locality, political"},
"שלומי": {"formatted_address": "Shlomi, Israel", "latitude": "33.072609", "longitude": "35.145945", "types": "locality, political"},
"שמר": {"formatted_address": "Wingate Ave 2, Haifa, Israel", "latitude": "32.8050191", "longitude": "34.9924741", "types": "establishment, point_of_interest"},
"שעב": {"formatted_address": "Sha'ab, Israel", "latitude": "32.88967", "longitude": "35.238764", "types": "locality, political"},
"שעלבים": {"formatted_address": "Sha'alvim, Israel", "latitude": "31.870235", "longitude": "34.984304", "types": "locality, political"},
"שער הגולן": {"formatted_address": "Sha'ar HaGolan, Israel", "latitude": "32.686919", "longitude": "35.604656", "types": "locality, political"},
"שער הנגב": {"formatted_address": "Sha'ar HaNegev Regional Council, Israel", "latitude": "31.5077257", "longitude": "34.6303372", "types": "administrative_area_level_4, political"},
"שפרעם": {"formatted_address": "Shefa-'Amr, Israel", "latitude": "32.805765", "longitude": "35.169971", "types": "locality, political"},
"שקמים": {"formatted_address": "Nitzanim, Israel", "latitude": "31.7373709", "longitude": "34.6286086", "types": "establishment, lodging, point_of_interest, school"},
"תירוש": {"formatted_address": "Tirosh, Israel", "latitude": "31.750347", "longitude": "34.885915", "types": "locality, political"},
"תל אביב - יפו": {"formatted_address": "Tel Aviv-Yafo, Israel", "latitude": "32.0852999", "longitude": "34.7817676", "types": "locality, political"},
"תל יצחק": {"formatted_address": "Tel Yitzhak, Israel", "latitude": "32.252745", "longitude": "34.872378", "types": "locality, political"},
"תל מונד": {"formatted_address": "Tel Mond, Israel", "latitude": "32.256608", "longitude": "34.91846", "types": "locality, political"},
"תל שבע": {"formatted_address": "Tel as-Sabi, Israel", "latitude": "31.247569", "longitude": "34.861193", "types": "locality, political"},
"תמר": {"formatted_address": "Rothschild St 64, Rishon LeTsiyon, Israel", "latitude": "31.9640537", "longitude": "34.7985782", "types": "establishment, florist, point_of_interest, store"},
"תקווה": {"formatted_address": "HaTikva St, Tel Aviv-Yafo, Israel", "latitude": "32.0507184", "longitude": "34.7898835", "types": "route"},
"תקוע": {"formatted_address": "Tekoa", "latitude": "31.652785", "longitude": "35.227517", "types": "locality, political"}
}